OSD.flyTime [s],HOME.distance [ft],OSD.height [ft],OSD.longitude,OSD.latitude,OSD.altitude [ft]
0.1,3.2,0.0,74.6959868691762,26.4460633835211,2244
0.3,3.2,0.0,74.6959868989687,26.4460633574388,2244
0.5,3.2,0.0,74.6959869209101,26.4460633380916,2244
0.7,3.2,0.0,74.6959869378622,26.4460633214631,2244
0.9,3.2,0.0,74.6959869454216,26.4460633096306,2244
1.1,3.2,0.0,74.6959869510746,26.4460633000355,2244
1.3,3.2,0.0,74.6959869607424,26.4460632944583,2244
1.5,3.1,0.0,74.6959869865921,26.4460632910815,2244
1.7,3.1,0.0,74.695986987782,26.4460632871905,2244
1.9,3.1,0.0,74.6959870101252,26.4460632844155,2244
2.1,3.1,0.0,74.6959870212353,26.4460632602011,2244
2.3,3.1,0.0,74.6959870878978,26.4460632681224,2244
2.5,0.0,0.3,74.6959871436094,26.446063380176,2244
2.7,0.0,0.6,74.6959872068325,26.4460633955847,2245
2.9,0.0,0.6,74.6959872047002,26.4460633349878,2245
3.1,0.0,0.9,74.6959871259506,26.446063213886,2245
3.3,0.0,0.9,74.6959871432363,26.4460631186452,2245
3.5,0.0,1.3,74.6959871618411,26.4460630251358,2245
3.7,0.1,1.3,74.6959872157134,26.4460630034055,2245
3.9,0.1,1.3,74.6959872489681,26.4460630044542,2245
4.1,0.1,1.3,74.6959872689506,26.4460630133438,2245
4.3,0.1,1.6,74.695987261945,26.4460630219977,2246
4.5,0.1,1.6,74.695987260236,26.4460630454412,2246
4.7,0.0,1.6,74.6959872453756,26.4460630733843,2246
4.9,0.0,1.9,74.6959872349532,26.4460630701678,2246
5.3,0.0,2.6,74.6959872775062,26.4460630933809,2247
5.5,0.0,2.9,74.6959872783744,26.4460631426717,2247
5.7,0.0,3.2,74.6959872299328,26.4460631772614,2247
5.9,0.0,3.6,74.6959871451474,26.4460632211452,2248
6.1,0.0,3.9,74.6959871021962,26.446063232428,2248
6.3,0.0,3.9,74.6959870858827,26.4460632336277,2248
6.5,0.0,3.9,74.6959870928704,26.4460632654661,2248
6.7,0.0,3.9,74.6959871291664,26.4460633031938,2248
6.9,0.0,3.9,74.6959871688312,26.4460633103517,2248
7.1,0.0,3.9,74.6959871937038,26.4460633028625,2248
7.3,0.0,3.9,74.6959871944584,26.4460633114609,2248
7.5,0.0,3.9,74.6959871814242,26.4460633190695,2248
7.7,0.0,3.9,74.6959871917186,26.4460633353605,2248
7.9,0.0,3.9,74.6959872027186,26.4460633616903,2248
8.1,0.0,3.9,74.6959871844247,26.4460633917825,2248
8.3,0.0,3.9,74.6959871442612,26.4460634194068,2248
8.5,0.0,3.9,74.6959870642558,26.4460634650279,2248
8.7,0.0,3.9,74.6959870369675,26.4460634916474,2248
8.9,0.1,3.9,74.6959870376001,26.4460635241567,2248
9.1,0.1,3.9,74.6959870393438,26.4460635394391,2248
9.3,0.1,3.9,74.695987100901,26.446063576181,2248
9.5,0.1,3.9,74.695987125471,26.4460636135973,2248
9.9,0.1,3.9,74.6959871170745,26.4460636521223,2248
10.1,0.1,3.9,74.6959870801973,26.4460636681254,2248
10.3,0.1,3.9,74.695987012352,26.4460636907337,2248
10.5,0.1,3.9,74.6959869412538,26.4460637200402,2248
10.7,0.1,3.9,74.695986887421,26.446063770242,2248
10.9,0.2,3.9,74.6959868714209,26.4460638165707,2248
11.1,0.2,3.9,74.6959868221302,26.4460638620181,2248
11.3,0.2,3.9,74.6959867778874,26.4460638894165,2248
11.5,0.2,3.9,74.6959867550658,26.4460639346863,2248
11.7,0.2,3.9,74.6959867348441,26.4460639732681,2248
11.9,0.3,3.9,74.6959866993374,26.4460640291515,2248
12.3,0.3,3.9,74.6959866051222,26.4460640865606,2248
12.5,0.3,3.9,74.6959865920664,26.4460641111037,2248
12.7,0.3,3.9,74.6959865985674,26.4460641200609,2248
12.9,0.3,3.9,74.6959865903479,26.4460641249573,2248
13.3,0.3,4.2,74.6959865700461,26.4460641194555,2248
13.5,0.3,4.2,74.6959865735729,26.4460641227774,2248
13.7,0.3,4.2,74.695986579495,26.4460641357411,2248
13.9,0.3,4.2,74.6959865654191,26.4460641546143,2248
14.1,0.3,4.2,74.6959865370114,26.4460641640658,2248
14.3,0.3,4.2,74.6959865396328,26.4460641591272,2248
14.5,0.3,4.2,74.6959865360774,26.4460641680356,2248
14.7,0.3,4.2,74.6959865103856,26.4460641712048,2248
14.9,0.3,4.2,74.6959864554023,26.4460641803001,2248
15.1,0.4,4.2,74.6959863999251,26.4460641881888,2248
15.3,0.4,4.2,74.6959863755536,26.4460642075744,2248
15.5,0.4,4.2,74.6959863673604,26.4460642407891,2248
15.7,0.4,4.2,74.6959863594411,26.4460642868425,2248
15.9,0.4,4.2,74.6959863662255,26.4460643250092,2248
16.1,0.4,4.2,74.6959863703083,26.4460643359876,2248
16.3,0.4,4.2,74.6959863341954,26.4460643377757,2248
16.5,0.4,4.2,74.6959862885151,26.4460643390744,2248
16.9,0.4,3.9,74.6959861755719,26.4460643156964,2248
17.1,0.4,3.9,74.6959861318386,26.4460643048703,2248
17.3,0.4,3.9,74.6959861005559,26.4460643279525,2248
17.5,0.5,3.9,74.6959860644525,26.4460643557523,2248
17.7,0.5,3.9,74.6959860186359,26.4460643766885,2248
17.9,0.5,3.9,74.6959859950513,26.4460643798709,2248
18.1,0.5,3.9,74.6959859442202,26.4460643752357,2248
18.3,0.5,3.9,74.6959859094287,26.4460643658471,2248
18.5,0.5,3.9,74.6959858685692,26.4460643600636,2248
18.7,0.5,3.9,74.6959858380112,26.4460643658826,2248
18.9,0.5,3.9,74.695985825435,26.446064380714,2248
19.1,0.5,3.9,74.6959858577617,26.4460644135351,2248
19.3,0.5,3.9,74.6959858869886,26.4460644784956,2248
19.5,0.6,3.9,74.6959858442347,26.446064521062,2248
19.7,0.6,3.9,74.6959857873272,26.4460645399653,2248
19.9,0.6,3.9,74.6959857663198,26.4460645749532,2248
20.1,0.6,3.9,74.6959857440711,26.4460646025016,2248
20.3,0.6,3.9,74.6959857530392,26.4460646214473,2248
20.5,0.6,3.9,74.6959857409497,26.4460646309891,2248
20.7,0.6,3.9,74.695985714935,26.4460646290295,2248
20.9,0.6,3.9,74.6959857005925,26.4460646407947,2248
21.1,0.6,3.9,74.6959856938176,26.4460646415259,2248
21.3,0.6,3.9,74.6959856780531,26.4460646474773,2248
21.5,0.6,3.9,74.695985666546,26.4460646571831,2248
21.7,0.6,3.9,74.6959856540152,26.446064662475,2248
21.9,0.6,3.9,74.6959856211097,26.4460646651239,2248
22.1,0.7,3.9,74.6959855964918,26.4460646707335,2248
22.3,0.7,3.9,74.6959855844418,26.4460646773509,2248
22.5,0.7,3.9,74.6959855722495,26.4460646838238,2248
22.7,0.7,3.9,74.6959855919821,26.4460646987057,2248
22.9,0.7,3.9,74.6959856251244,26.4460647277522,2248
23.1,0.7,3.9,74.6959856650667,26.4460647499688,2248
23.3,0.7,3.9,74.6959856654027,26.4460647581591,2248
23.5,0.7,3.9,74.695985677375,26.4460647736422,2248
23.7,0.7,3.9,74.6959856735242,26.4460647690821,2248
23.9,0.7,3.9,74.6959856377126,26.4460647599102,2248
24.1,0.7,3.9,74.6959855724349,26.4460647592477,2248
24.3,0.7,3.9,74.6959854763229,26.4460647841206,2248
24.5,0.7,3.9,74.6959854140338,26.4460647948594,2248
24.7,0.7,3.9,74.6959854061755,26.4460647960483,2248
25.1,0.7,3.9,74.6959854780642,26.4460648572955,2248
25.3,0.7,3.9,74.6959854915876,26.4460648865931,2248
25.5,0.7,3.9,74.6959854744143,26.4460649099169,2248
25.7,0.8,3.9,74.695985447645,26.4460649233214,2248
25.9,0.8,3.9,74.6959854560606,26.4460649322797,2248
26.1,0.7,3.9,74.6959854810253,26.4460649425292,2248
26.3,0.7,3.9,74.6959855515566,26.4460649741721,2248
26.5,0.7,3.9,74.6959855927773,26.4460650032383,2248
26.7,0.7,3.9,74.6959856283904,26.4460650243614,2248
26.9,0.8,3.9,74.6959856246711,26.4460650435959,2248
27.1,0.8,3.9,74.6959855948594,26.4460650482808,2248
27.3,0.8,3.9,74.6959855425311,26.4460650324803,2248
27.5,0.8,3.9,74.6959854621921,26.4460650193743,2248
27.7,0.8,3.9,74.6959853891337,26.4460650150843,2248
27.9,0.8,3.9,74.6959853152897,26.4460650280407,2248
28.3,0.8,3.9,74.6959852791193,26.4460650688471,2248
28.5,0.8,3.9,74.6959852851754,26.4460650965746,2248
28.7,0.8,3.9,74.6959852874345,26.4460650995418,2248
28.9,0.8,3.9,74.6959852247902,26.4460650948587,2248
29.1,0.9,3.9,74.6959851563529,26.4460650937333,2248
29.3,0.9,3.9,74.6959851164967,26.4460651057563,2248
29.5,0.9,3.9,74.695985105541,26.4460651233469,2248
29.7,0.9,3.9,74.6959851350442,26.4460651655439,2248
29.9,0.9,3.9,74.695985169215,26.4460652066672,2248
30.1,0.9,3.9,74.6959852110432,26.4460652574236,2248
30.3,0.9,3.9,74.6959852637088,26.4460653101608,2248
30.5,0.9,3.9,74.6959853079169,26.4460653476084,2248
30.7,0.9,3.9,74.695985364871,26.4460653715724,2248
30.9,0.9,4.2,74.6959853800771,26.446065408354,2248
31.1,0.9,4.2,74.6959853466573,26.4460654131636,2248
31.3,0.9,3.9,74.695985291033,26.4460654416621,2248
31.5,0.9,3.9,74.6959852510632,26.4460654495988,2248
31.9,1.0,4.2,74.6959852470832,26.4460655127053,2248
32.1,1.0,4.2,74.6959852186109,26.4460655257389,2248
32.3,1.0,4.2,74.6959851448243,26.4460655331082,2248
32.5,1.0,4.2,74.6959850571974,26.4460655571059,2248
32.7,1.0,4.2,74.6959849899333,26.4460655605974,2248
32.9,1.0,4.2,74.6959849421781,26.4460655757506,2248
33.1,1.0,4.2,74.6959849561284,26.4460655735999,2248
33.3,1.0,4.2,74.6959849793554,26.4460655647341,2248
33.5,1.0,4.2,74.6959849775149,26.4460655493522,2248
33.9,1.0,4.2,74.6959849145848,26.4460655497511,2248
34.1,1.0,4.2,74.695984872692,26.4460655328956,2248
34.3,1.1,4.2,74.695984853262,26.446065552149,2248
34.7,1.1,4.2,74.6959848553776,26.4460656088197,2248
34.9,1.1,4.2,74.6959848824781,26.4460656279165,2248
35.1,1.1,4.2,74.6959849031244,26.446065641234,2248
35.3,1.1,4.2,74.6959848991767,26.4460656688191,2248
35.5,1.1,4.2,74.6959848681117,26.4460656857902,2248
35.7,1.1,4.2,74.6959848607759,26.4460657126436,2248
35.9,1.1,4.2,74.6959848585527,26.4460657252241,2248
36.1,1.1,4.2,74.6959848707522,26.4460657360615,2248
36.3,1.1,4.2,74.6959848949025,26.4460657528525,2248
36.5,1.1,4.2,74.69598494443,26.4460657713746,2248
36.7,1.0,4.2,74.6959851483678,26.4460657410575,2248
36.9,0.9,4.2,74.6959855954191,26.4460656508712,2248
37.1,0.9,4.5,74.6959860960222,26.446065591372,2249
37.3,0.8,5.9,74.6959864470632,26.446065519002,2250
37.5,0.8,7.2,74.6959866329714,26.4460654543532,2251
37.7,0.7,9.5,74.6959867155169,26.4460653939795,2253
37.9,0.7,11.8,74.6959867156006,26.4460653780001,2256
38.1,0.8,14.7,74.6959866656545,26.4460654260664,2259
38.3,0.8,18.0,74.6959865671161,26.4460654775547,2262
38.5,0.8,21.6,74.6959864874468,26.4460655160021,2266
38.7,0.8,25.9,74.6959864449895,26.4460655254998,2270
38.9,0.8,29.8,74.6959864406902,26.4460655649831,2274
39.1,0.8,33.1,74.6959864780697,26.446065605462,2277
39.3,0.8,36.4,74.6959865090522,26.4460656337422,2280
39.5,0.8,39.3,74.6959865624126,26.4460656333259,2283
39.7,0.8,41.9,74.695986595397,26.4460656245245,2286
39.9,0.8,44.9,74.6959866114354,26.4460656247212,2289
40.1,0.8,48.2,74.6959866075691,26.4460656290596,2292
40.3,0.8,51.1,74.695986622561,26.4460656374176,2295
40.5,0.8,54.4,74.6959866356754,26.4460656306871,2298
40.7,0.8,57.4,74.6959866533283,26.4460656157529,2301
40.9,0.8,60.3,74.6959866998206,26.4460656078454,2304
41.1,0.8,63.6,74.6959867447929,26.4460655990437,2308
41.3,0.8,66.9,74.6959867873817,26.4460656019473,2311
41.5,0.8,69.8,74.6959868263613,26.4460656450853,2314
41.7,0.8,73.1,74.6959868278813,26.4460656904775,2317
41.9,0.9,76.4,74.6959868217905,26.4460657417644,2320
42.1,0.9,79.3,74.6959867904002,26.4460657727805,2323
42.3,0.9,83.0,74.6959867759452,26.446065809341,2327
42.5,0.9,86.2,74.6959867355449,26.4460658395802,2330
42.7,0.9,89.5,74.695986687456,26.4460658330557,2333
42.9,0.9,92.8,74.6959866422457,26.4460658039735,2337
43.1,0.9,96.1,74.6959866055898,26.4460658009678,2340
43.3,0.9,99.4,74.6959866231123,26.4460657982154,2343
43.5,0.9,102.6,74.6959866532709,26.4460657589636,2347
43.7,0.9,105.9,74.6959866858714,26.4460657294584,2350
43.9,0.9,109.2,74.6959866916979,26.4460657358228,2353
44.1,0.9,112.5,74.6959866799541,26.4460657462582,2356
44.3,0.9,115.8,74.6959866841984,26.4460657688808,2360
44.5,0.9,119.0,74.6959867243165,26.4460657837954,2363
44.7,0.9,122.3,74.6959867627172,26.4460657972461,2366
44.9,0.9,125.6,74.6959867803282,26.4460658053168,2370
45.1,0.9,128.6,74.6959868230809,26.4460658184106,2373
45.3,0.9,131.8,74.6959868396383,26.4460658546531,2376
45.5,0.9,135.1,74.6959868443287,26.4460659091074,2379
45.7,0.9,138.4,74.695986827977,26.4460659539847,2382
45.9,0.9,141.7,74.6959868834398,26.4460659556468,2386
46.1,0.9,145.0,74.6959869453761,26.4460659226914,2389
46.3,0.9,148.2,74.6959870022705,26.4460658816176,2392
46.5,0.9,151.5,74.6959869990296,26.4460658386141,2395
46.7,0.9,154.8,74.6959869858661,26.446065790601,2399
46.9,0.9,158.1,74.695986960972,26.4460657288478,2402
47.1,0.8,161.4,74.6959869415181,26.4460656849694,2405
47.3,0.8,164.6,74.6959869312201,26.4460656604302,2409
47.5,0.8,167.9,74.6959869308386,26.4460656642402,2412
47.7,0.8,171.2,74.6959869247383,26.4460656585563,2415
47.9,0.8,174.5,74.6959869026749,26.4460656646377,2418
48.1,0.8,177.8,74.6959868867274,26.4460656730253,2422
48.3,0.8,181.1,74.6959869149712,26.4460656754193,2425
48.5,0.8,184.3,74.6959869086975,26.446065689294,2428
48.7,0.9,187.6,74.6959868716493,26.4460657256821,2432
48.9,0.9,190.9,74.6959868509205,26.4460657531721,2435
49.1,0.9,193.8,74.695986859561,26.4460657258143,2438
49.3,0.9,197.1,74.6959868419895,26.4460657212636,2441
49.5,0.9,200.4,74.6959868257777,26.4460657094126,2444
49.7,0.8,203.7,74.6959867968509,26.4460656940348,2448
49.9,0.8,207.0,74.6959868050992,26.446065655529,2451
50.1,0.8,210.3,74.6959868215406,26.4460656125256,2454
50.3,0.8,213.5,74.6959868260204,26.4460655920531,2457
50.5,0.8,216.8,74.6959868073032,26.4460655849254,2461
50.7,0.8,220.1,74.6959867812192,26.4460655627582,2464
50.9,0.8,223.4,74.6959867775358,26.4460655344635,2467
51.1,0.8,226.7,74.6959868072996,26.4460655105905,2471
51.3,0.8,229.9,74.6959868191703,26.4460655287016,2474
51.5,0.8,233.2,74.6959868396897,26.4460655879091,2477
51.7,0.8,236.5,74.6959868771481,26.4460656102141,2480
51.9,0.8,239.8,74.6959869144307,26.4460655811454,2484
52.1,0.8,243.1,74.6959869506417,26.446065581634,2487
52.3,0.8,246.3,74.6959869725174,26.4460656148927,2490
52.5,0.8,249.6,74.6959869627994,26.4460656595907,2494
52.7,0.8,252.9,74.695986928686,26.4460656851723,2497
52.9,0.8,256.2,74.6959869295638,26.44606569226,2500
53.1,0.8,259.5,74.6959869806017,26.4460656530499,2503
53.3,0.8,262.7,74.6959870194055,26.4460656279805,2507
53.5,0.8,266.0,74.6959870095285,26.4460655967854,2510
53.7,0.8,269.6,74.6959870330401,26.4460655991071,2514
53.9,0.8,272.9,74.6959870503689,26.4460656714272,2517
54.1,0.9,276.2,74.6959870933105,26.4460657273956,2520
54.3,0.9,279.5,74.6959871402776,26.446065735705,2523
54.5,0.9,282.8,74.695987175917,26.4460657476994,2527
54.9,0.9,289.6,74.6959870995628,26.4460658159853,2534
55.1,0.9,292.9,74.6959870717123,26.4460658368963,2537
55.3,0.9,296.2,74.6959870889861,26.4460658298889,2540
55.5,0.9,299.5,74.6959870986706,26.4460658381788,2543
55.7,0.9,302.4,74.6959871188241,26.4460658409218,2546
55.9,0.9,305.7,74.6959871327625,26.4460658429049,2550
56.1,0.9,309.0,74.6959871731628,26.446065837357,2553
56.3,0.9,312.3,74.6959872087053,26.4460658414294,2556
56.5,0.9,315.6,74.6959872102816,26.4460658810597,2560
56.7,0.9,318.8,74.6959871833317,26.446065944758,2563
56.9,1.0,322.1,74.6959871659598,26.4460659907401,2566
57.1,1.0,325.4,74.6959871574641,26.446066060225,2569
57.3,1.0,328.7,74.6959871499633,26.4460660876162,2573
57.5,1.0,332.0,74.6959871161799,26.4460660613043,2576
57.7,1.0,334.9,74.6959870576209,26.4460660385955,2579
57.9,1.0,338.2,74.6959869984256,26.4460660402084,2582
58.1,1.0,341.8,74.6959869494183,26.4460660172528,2586
58.5,0.9,348.0,74.695986905685,26.4460658748723,2592
58.7,0.9,351.0,74.6959868957661,26.4460657535688,2595
58.9,0.8,354.3,74.6959869257847,26.4460656932443,2598
59.1,0.9,357.9,74.6959869705274,26.4460657363763,2602
59.3,0.9,360.8,74.6959870340614,26.44606579679,2605
59.5,0.9,364.5,74.6959870807678,26.4460658101333,2608
59.7,0.9,367.7,74.6959871167731,26.4460658253751,2612
59.9,0.9,371.0,74.6959871046239,26.4460658195668,2615
60.1,0.9,374.3,74.6959870388451,26.4460658005952,2618
60.3,0.9,377.6,74.6959869772891,26.4460657603984,2622
60.5,0.9,380.5,74.695986956296,26.4460657388099,2624
60.7,0.9,383.8,74.69598696284,26.4460657162446,2628
60.9,0.9,387.4,74.6959869853411,26.4460657277387,2631
61.1,0.9,390.7,74.6959869754162,26.4460657513882,2635
61.3,0.9,394.3,74.6959869767461,26.4460657687311,2638
61.5,0.9,397.6,74.6959869929125,26.4460657608077,2642
61.7,0.9,400.9,74.6959870029749,26.4460657542038,2645
61.9,0.9,404.5,74.6959869956439,26.446065775906,2648
62.1,0.9,407.8,74.6959870096301,26.4460658454627,2652
62.3,0.9,411.0,74.6959870121726,26.4460658824453,2655
62.5,0.9,414.0,74.6959870289357,26.4460658745018,2658
62.7,0.9,417.3,74.6959870386286,26.4460658703055,2661
62.9,0.9,420.2,74.6959870729214,26.4460658040864,2664
63.1,0.8,423.5,74.6959870895195,26.4460656730425,2667
63.3,0.8,426.8,74.6959871166105,26.4460654983206,2671
63.5,0.8,429.7,74.6959871577905,26.4460654451858,2674
63.7,0.8,433.0,74.6959872071542,26.446065494684,2677
63.9,0.8,436.3,74.6959872522724,26.4460655654762,2680
64.1,0.8,439.6,74.6959873238454,26.4460655936123,2684
64.3,0.8,442.9,74.6959873405188,26.446065605319,2687
64.5,0.8,446.1,74.6959873515667,26.4460656375822,2690
64.7,0.8,449.4,74.6959873610897,26.4460656685198,2693
64.9,0.8,452.7,74.6959873333457,26.4460656800308,2697
65.1,0.8,456.0,74.6959872868666,26.4460656919267,2700
65.3,0.8,459.3,74.6959872204552,26.4460656685126,2703
65.5,0.8,462.5,74.6959871616689,26.4460656186769,2707
65.7,0.8,466.2,74.6959871179798,26.4460655705718,2710
65.9,0.8,469.1,74.6959871188947,26.4460655485671,2713
66.3,0.8,476.0,74.695987082704,26.4460655869742,2720
66.5,0.8,479.3,74.6959870702306,26.4460656002193,2723
66.7,0.8,482.6,74.6959871085967,26.44606555711,2727
66.9,0.8,486.2,74.6959872085833,26.4460654994015,2730
67.1,0.8,489.5,74.6959872817553,26.4460655031132,2733
67.3,0.8,492.7,74.6959873582279,26.446065556113,2737
67.5,0.8,496.0,74.6959873543567,26.4460655861077,2740
67.7,0.8,499.3,74.69598731034,26.4460655979465,2743
67.9,0.8,502.2,74.6959872693273,26.4460656049687,2746
68.1,0.8,505.9,74.6959872358825,26.4460655997013,2750
68.3,0.8,508.8,74.695987218971,26.4460655878868,2753
68.5,0.8,512.4,74.6959871837239,26.4460655526128,2756
68.7,0.8,515.7,74.6959871518385,26.4460655265856,2760
68.9,0.8,519.0,74.6959871258693,26.4460655169894,2763
69.1,0.8,522.3,74.6959871087952,26.4460655087848,2766
69.3,0.8,525.9,74.6959871749543,26.4460655100611,2770
69.5,0.8,529.1,74.6959872274573,26.4460655270532,2773
69.7,0.8,532.1,74.6959872390145,26.446065549744,2776
69.9,0.8,535.7,74.6959872514186,26.4460655736287,2780
70.1,0.8,539.0,74.6959872222132,26.4460655932777,2783
70.3,0.8,542.3,74.6959871328558,26.4460656122639,2786
70.5,0.8,545.6,74.695987046475,26.446065618758,2790
70.7,0.8,548.8,74.6959869902504,26.4460656252693,2793
70.9,0.8,551.8,74.6959869329099,26.4460656298665,2796
71.1,0.8,555.1,74.6959868724302,26.4460656310608,2799
71.3,0.8,558.3,74.6959868703864,26.4460656369254,2802
71.5,0.8,561.6,74.6959869127205,26.4460656277718,2806
71.7,0.8,564.9,74.695986946633,26.446065603213,2809
71.9,0.8,568.2,74.6959869552532,26.4460655807539,2812
72.1,0.8,571.1,74.69598693581,26.4460656234737,2815
72.3,0.9,574.4,74.6959868564839,26.4460657142396,2818
72.5,0.9,577.7,74.6959867814081,26.4460657605523,2822
72.7,0.8,581.0,74.6959867400307,26.4460656961212,2825
72.9,0.8,584.3,74.695986771903,26.4460656212983,2828
73.1,0.8,587.5,74.6959868130914,26.4460656812499,2832
73.3,0.9,590.8,74.6959868577767,26.4460657792452,2835
73.5,0.9,594.1,74.6959868847206,26.4460658128782,2838
73.7,0.9,597.4,74.6959868975217,26.4460657894022,2841
73.9,0.9,600.7,74.695986914866,26.4460657186881,2845
74.1,0.9,604.0,74.6959869364534,26.4460657209993,2848
74.3,0.9,607.2,74.6959869322414,26.4460657553739,2851
74.5,0.9,610.5,74.6959869109518,26.4460657860258,2854
74.7,0.9,613.8,74.6959868620055,26.4460657952492,2858
74.9,0.9,617.1,74.6959868176012,26.446065774101,2861
75.1,0.9,620.4,74.6959867846395,26.4460657401395,2864
75.3,0.8,623.6,74.6959867398119,26.4460656969221,2868
75.5,0.8,626.9,74.6959866858152,26.4460656299174,2871
75.7,0.8,630.2,74.6959866903489,26.446065557441,2874
75.9,0.8,633.5,74.6959867488219,26.4460655194289,2877
76.1,0.8,636.8,74.6959868284996,26.4460654894579,2881
76.3,0.8,640.4,74.6959868818624,26.4460655258349,2884
76.5,0.8,643.7,74.6959869053358,26.4460655920674,2888
76.7,0.8,646.9,74.6959869305014,26.4460656212902,2891
76.9,0.8,650.2,74.6959869759377,26.4460656619196,2894
77.1,0.8,653.5,74.6959869995462,26.4460656785245,2897
77.3,0.8,656.8,74.6959870354571,26.4460657014469,2901
77.5,0.9,660.1,74.6959870336273,26.4460657233831,2904
77.7,0.9,663.3,74.695986996951,26.4460657485327,2907
77.9,0.9,666.9,74.6959869313708,26.4460657842337,2911
78.1,0.9,670.2,74.6959868923793,26.4460657791954,2914
78.3,0.9,673.5,74.6959868781742,26.4460657478456,2917
78.5,0.9,676.8,74.6959868934974,26.4460657290542,2921
78.7,0.8,680.1,74.695986907974,26.4460657073889,2924
78.9,0.9,683.3,74.6959868904849,26.4460657136967,2927
79.1,0.9,686.6,74.695986878655,26.4460657405893,2931
79.3,0.9,689.9,74.6959868921592,26.4460657693484,2934
79.5,0.9,692.9,74.6959869122374,26.4460657811006,2937
79.7,0.9,696.5,74.6959869382808,26.4460657692628,2940
79.9,0.9,699.8,74.6959869377378,26.446065758611,2944
80.1,0.9,703.0,74.6959869060653,26.4460657543754,2947
80.3,0.9,706.0,74.6959869023053,26.4460657464603,2950
80.5,0.9,709.3,74.6959868739825,26.446065730674,2953
80.7,0.9,712.5,74.6959868689788,26.4460657250666,2957
80.9,0.9,715.5,74.6959868756401,26.4460657359879,2959
81.1,0.9,718.8,74.6959868440249,26.4460657565849,2963
81.3,0.9,722.1,74.6959868315683,26.4460657678164,2966
81.5,0.9,725.7,74.6959868427608,26.446065764519,2970
81.7,0.9,729.0,74.6959868564887,26.446065788979,2973
81.9,0.9,732.2,74.6959868305183,26.4460658072658,2976
82.1,0.9,735.5,74.6959867964073,26.4460658180415,2979
82.3,0.9,738.8,74.6959867773002,26.4460658209778,2983
82.5,0.9,742.1,74.695986785601,26.446065821398,2986
82.7,0.9,745.4,74.6959868200624,26.4460658213555,2989
82.9,0.9,748.6,74.6959868181071,26.4460658201072,2993
83.1,0.9,751.9,74.6959868065797,26.4460658312973,2996
83.3,0.9,755.2,74.6959868279722,26.4460658485711,2999
83.5,0.9,758.5,74.6959868786406,26.4460658456798,3002
83.7,0.9,761.8,74.6959868929605,26.4460658196966,3006
83.9,0.9,764.7,74.6959869007399,26.4460657781953,3009
84.1,0.9,768.0,74.6959868676059,26.4460657242116,3012
84.3,0.8,771.3,74.6959868845951,26.4460656780253,3015
84.5,0.8,774.6,74.6959869582358,26.4460656371032,3019
84.7,0.8,777.8,74.6959870292467,26.4460656192089,3022
84.9,0.8,781.1,74.6959870395877,26.4460655843561,3025
85.1,0.8,784.4,74.6959870210786,26.4460655653108,3028
85.3,0.8,787.7,74.6959869936001,26.4460655622433,3032
85.5,0.8,791.0,74.6959870079379,26.4460655375426,3035
85.7,0.8,794.2,74.6959870144819,26.4460655179341,3038
85.9,0.8,797.5,74.695986981977,26.4460655071633,3041
86.1,0.8,800.8,74.6959869591219,26.4460655003984,3045
86.3,0.8,804.1,74.6959869174097,26.4460654806929,3048
86.5,0.8,807.4,74.6959868681022,26.446065447342,3051
86.7,0.8,810.6,74.6959868315731,26.4460654375556,3055
86.9,0.8,814.3,74.6959868137899,26.4460654435555,3058
87.1,0.8,817.2,74.6959867952448,26.446065465569,3061
87.3,0.8,820.5,74.6959867579635,26.4460654770824,3064
87.5,0.8,823.8,74.6959867434534,26.4460654768255,3068
87.7,0.8,827.4,74.6959867717966,26.4460654930598,3071
87.9,0.8,831.0,74.6959867849385,26.4460655296719,3075
88.1,0.8,834.3,74.6959867928147,26.4460655465073,3078
88.3,0.8,837.2,74.6959868037047,26.446065536352,3081
88.5,0.8,840.5,74.6959867820539,26.4460655699071,3084
88.7,0.8,844.1,74.6959867955534,26.4460655917221,3088
88.9,0.8,847.1,74.6959868111887,26.4460656207808,3091
89.1,0.8,850.3,74.6959868467528,26.446065627422,3094
89.3,0.8,854.0,74.6959868733762,26.4460655642606,3098
89.5,0.8,857.2,74.6959868579095,26.4460654986844,3101
89.7,0.8,860.5,74.6959868106207,26.4460654901432,3104
89.9,0.8,863.8,74.6959867581679,26.446065524471,3108
90.1,0.8,867.1,74.695986740771,26.4460655253317,3111
90.3,0.8,870.4,74.6959867078631,26.4460655310787,3114
90.5,0.8,873.3,74.6959866991664,26.4460655223397,3117
90.7,0.8,876.6,74.6959867073177,26.4460655120478,3121
90.9,0.8,879.9,74.6959867283311,26.4460654912888,3124
91.1,0.8,883.2,74.6959867591809,26.446065464438,3127
91.3,0.8,886.1,74.6959868209402,26.4460654480814,3130
91.5,0.7,888.7,74.6959868804118,26.4460654149224,3133
91.9,0.8,893.3,74.6959869438824,26.446065461803,3137
92.1,0.8,895.6,74.6959870083373,26.4460655252244,3140
92.3,0.8,897.6,74.6959870605317,26.4460655904377,3142
92.5,0.8,899.2,74.6959871046645,26.4460656396734,3143
92.7,0.8,900.9,74.6959871041084,26.4460656879065,3145
92.9,0.9,902.2,74.6959870733687,26.4460657222307,3146
93.1,0.9,903.2,74.6959870544051,26.4460657229693,3147
93.3,0.9,903.8,74.6959870663857,26.4460657260662,3148
93.5,0.8,903.8,74.6959870821503,26.4460656995136,3148
93.7,0.8,903.8,74.6959871355203,26.446065584734,3148
93.9,0.8,904.1,74.6959872516709,26.4460654402391,3148
94.1,1.0,905.1,74.6959870438033,26.4460660484305,3149
94.3,1.7,906.1,74.695986588328,26.4460681333335,3150
94.5,2.8,906.8,74.6959860637792,26.4460709645995,3151
94.7,4.1,907.4,74.6959855722938,26.4460746528851,3151
94.9,5.7,907.8,74.6959847120821,26.4460789141634,3152
95.1,7.8,907.8,74.6959833071287,26.4460844741075,3152
95.3,10.3,907.8,74.6959816568541,26.4460911169229,3152
95.5,13.3,907.8,74.6959795620874,26.4460993303881,3152
95.7,16.9,907.8,74.6959770579108,26.4461088579242,3152
95.9,20.7,907.8,74.6959745040847,26.4461190286476,3152
96.1,25.1,907.8,74.6959714308737,26.4461306318835,3152
96.3,29.8,907.8,74.6959684794688,26.4461434484592,3152
96.5,34.9,907.8,74.6959657996868,26.4461572400351,3152
96.7,40.3,908.1,74.695962922816,26.4461717462312,3152
96.9,45.9,908.1,74.6959597734468,26.4461867463926,3152
97.1,51.7,908.1,74.6959564727924,26.4462023319886,3152
97.3,57.9,908.1,74.6959527621958,26.4462190967882,3152
97.5,64.1,908.1,74.6959487703445,26.4462356817422,3152
97.7,70.9,908.1,74.6959442913692,26.4462538004602,3152
97.9,77.5,908.1,74.6959399697426,26.4462715726958,3152
98.1,84.6,908.1,74.6959353418522,26.4462906701104,3152
98.3,92.1,908.1,74.6959305762502,26.446310649767,3152
98.5,99.7,908.1,74.6959257738044,26.4463312040904,3152
98.7,107.6,908.1,74.6959208838944,26.4463522781033,3152
98.9,115.5,908.1,74.6959159207324,26.4463736551685,3152
99.1,123.7,908.1,74.6959107957968,26.446395468866,3152
99.3,132.1,908.1,74.6959054644946,26.4464179833066,3152
99.5,140.7,908.1,74.6958999732653,26.446441027202,3152
99.7,149.7,908.4,74.6958942257663,26.4464651309665,3152
99.9,158.3,908.1,74.6958886715459,26.446488216973,3152
100.1,166.9,908.1,74.6958831367855,26.4465113182614,3152
100.3,174.9,908.1,74.6958781302931,26.4465327044409,3152
100.5,182.0,908.1,74.6958737923829,26.4465518406429,3152
100.7,188.3,907.8,74.6958699933318,26.4465686703995,3152
100.9,193.6,907.8,74.6958666334773,26.4465831334051,3152
101.1,198.2,907.8,74.6958637218796,26.4465954362748,3152
101.3,202.1,908.1,74.6958612773766,26.4466057212745,3152
101.5,205.2,908.4,74.6958592203972,26.4466140560424,3152
101.7,207.7,908.7,74.695857532553,26.4466208775878,3153
101.9,209.8,909.1,74.6958560130742,26.4466263422252,3153
102.1,211.7,909.1,74.6958545951523,26.4466315454246,3153
102.3,213.4,909.4,74.695853336746,26.4466360344836,3153
102.5,215.0,909.4,74.6958522675522,26.4466401424529,3153
102.7,216.0,909.4,74.6958516550344,26.4466429692046,3153
102.9,216.4,909.4,74.695851496686,26.4466441544132,3153
103.1,216.6,909.4,74.6958514936627,26.4466445708637,3153
103.3,216.7,909.4,74.6958513512534,26.4466447064141,3153
103.5,216.7,909.4,74.6958511001405,26.4466447617855,3153
103.7,216.8,909.4,74.6958507828218,26.4466449185112,3153
103.9,216.9,909.4,74.6958504827721,26.4466450960698,3153
104.3,217.2,908.7,74.6958503814735,26.4466459228033,3153
104.5,217.4,908.7,74.6958505295945,26.4466466178927,3153
104.7,217.6,908.4,74.695850580349,26.4466471598884,3152
104.9,217.7,908.4,74.6958505653188,26.4466475241199,3152
105.1,217.8,908.7,74.695850560803,26.4466476933864,3153
105.3,217.8,908.7,74.6958505265042,26.4466477262118,3153
105.5,217.8,908.7,74.6958504409725,26.4466476944144,3153
105.7,217.8,908.7,74.6958503240314,26.4466476444567,3153
105.9,217.8,908.4,74.6958502786824,26.4466476393856,3152
106.1,217.8,908.4,74.6958503137944,26.4466476633022,3152
106.3,217.8,908.7,74.6958503485141,26.4466477140822,3153
106.5,217.8,908.7,74.6958503834826,26.4466477486208,3153
106.7,217.8,908.7,74.6958504327638,26.4466477612301,3153
106.9,217.8,908.7,74.6958504578684,26.4466477676718,3153
107.1,217.8,908.7,74.695850467474,26.4466478672444,3153
107.3,218.1,908.7,74.6958505959533,26.4466486403198,3153
107.5,218.7,908.7,74.6958507835776,26.4466503730064,3153
107.7,219.8,908.7,74.6958510329589,26.4466534881965,3153
107.9,221.4,908.7,74.695851417086,26.4466578653476,3153
108.1,223.3,908.7,74.6958518249114,26.4466635165209,3153
108.3,225.9,908.7,74.6958523021093,26.4466707034971,3153
108.5,228.7,908.7,74.6958528810076,26.4466787033639,3153
108.7,232.0,908.4,74.6958536109544,26.4466879023507,3152
108.9,235.5,908.4,74.6958544395688,26.4466980146231,3152
109.1,239.6,908.4,74.6958553834022,26.446709516389,3152
109.3,243.9,908.4,74.695856346112,26.4467215374675,3152
109.5,248.5,908.4,74.695857351511,26.4467346286945,3152
109.7,253.5,908.4,74.6958583079732,26.4467485598125,3152
109.9,258.7,908.4,74.6958592080267,26.4467631363364,3152
110.1,264.1,908.4,74.6958600735518,26.4467783152986,3152
110.3,269.8,908.4,74.6958609408946,26.4467943131819,3152
110.5,276.0,908.4,74.6958617536943,26.4468116752716,3152
110.7,282.3,908.4,74.6958624630619,26.446829101984,3152
110.9,289.0,908.4,74.695863135825,26.4468476363988,3152
111.1,295.9,908.4,74.6958637861719,26.4468670309893,3152
111.3,303.4,908.4,74.6958643691075,26.4468878341929,3152
111.5,310.8,908.4,74.6958648228559,26.4469082381466,3152
111.7,318.5,908.4,74.6958651741003,26.4469296386487,3152
111.9,326.3,908.4,74.6958653429823,26.4469511011695,3152
112.1,334.2,908.4,74.6958653649392,26.4469728864618,3152
112.3,342.5,908.4,74.6958653364,26.4469959137732,3152
112.5,350.6,908.1,74.6958651961433,26.4470183346031,3152
112.7,359.2,908.1,74.6958649493357,26.4470418359294,3152
112.9,367.9,908.1,74.6958646539261,26.4470657941384,3152
113.1,376.8,908.4,74.6958642876898,26.4470903239475,3152
113.3,385.9,908.4,74.6958637635452,26.4471154692154,3152
113.5,395.2,908.4,74.6958630478727,26.447140913064,3152
113.7,404.5,908.4,74.6958621771335,26.4471665243289,3152
113.9,413.9,908.4,74.6958611867073,26.4471922538748,3152
114.1,423.3,908.4,74.6958600637166,26.4472182336199,3152
114.3,433.2,908.1,74.6958588317352,26.4472451507044,3152
114.5,442.5,908.1,74.6958575971514,26.4472708977252,3152
114.7,452.5,908.1,74.6958562229617,26.4472982661415,3152
114.9,462.1,908.1,74.6958548159082,26.4473244340672,3152
115.1,472.0,908.1,74.6958532285685,26.4473515999119,3152
115.3,482.3,908.1,74.695851474576,26.4473797215986,3152
115.5,492.0,908.1,74.6958497444825,26.4474064362485,3152
115.7,502.2,908.1,74.6958478364278,26.4474344012781,3152
115.9,511.8,908.1,74.6958459889244,26.4474606957083,3152
116.1,521.9,908.1,74.6958440375585,26.4474883100066,3152
116.3,531.6,908.1,74.6958421032127,26.4475147264183,3152
116.5,541.5,908.1,74.6958400133123,26.447541833054,3152
116.7,551.4,908.1,74.6958378679119,26.4475688873334,3152
116.9,561.4,908.1,74.6958356568319,26.447596369782,3152
117.1,571.0,908.1,74.6958335418269,26.4476224700011,3152
117.3,580.8,908.1,74.6958313801908,26.447649409426,3152
117.5,590.7,908.4,74.6958292217501,26.4476763092412,3152
117.7,600.5,908.4,74.6958270020596,26.4477031307963,3152
117.9,610.5,908.4,74.6958246748135,26.4477304376735,3152
118.1,620.2,908.4,74.6958223429751,26.4477571243636,3152
118.3,629.8,908.4,74.6958200007849,26.4477833391632,3152
118.5,639.7,908.4,74.6958176019754,26.4478102869486,3152
118.7,649.5,908.4,74.6958153366488,26.4478371832003,3152
118.9,659.3,908.4,74.695813181308,26.4478638885302,3152
119.1,669.3,908.4,74.6958109997719,26.447891350283,3152
119.3,678.9,908.4,74.6958089440076,26.4479175904383,3152
119.5,689.0,908.4,74.6958067670255,26.4479452210464,3152
119.7,698.6,908.4,74.6958046879935,26.447971426526,3152
119.9,708.6,908.4,74.6958025252093,26.447998815501,3152
120.1,718.2,908.4,74.6958004978981,26.4480248606228,3152
120.3,728.0,908.4,74.6957985174284,26.4480518026518,3152
120.5,737.9,908.4,74.6957966778468,26.448078737828,3152
120.7,747.7,908.4,74.6957949011224,26.4481056647806,3152
120.9,757.7,908.4,74.6957931386723,26.4481331263963,3152
121.1,767.3,908.4,74.6957914973443,26.448159251697,3152
121.3,777.3,908.4,74.6957898170392,26.4481868503707,3152
121.5,787.1,908.4,74.6957882266092,26.4482136863169,3152
121.7,796.7,908.1,74.695786783267,26.4482397622767,3152
121.9,806.4,908.1,74.6957854255521,26.4482664221034,3152
122.1,816.2,908.4,74.695784208821,26.4482932373538,3152
122.3,826.3,908.4,74.6957830285986,26.4483209996747,3152
122.5,835.9,908.4,74.6957820156127,26.4483474071777,3152
122.7,845.8,908.4,74.6957810711096,26.4483744363756,3152
122.9,855.6,908.4,74.6957802936133,26.4484012624536,3152
123.1,865.6,908.4,74.6957795881587,26.4484288387868,3152
123.3,875.2,908.4,74.695778995828,26.4484552092842,3152
123.5,885.3,908.4,74.6957785001078,26.4484829648892,3152
123.7,894.9,908.4,74.6957781434005,26.4485093002997,3152
123.9,904.7,908.4,74.6957779469647,26.4485361803785,3152
124.1,914.5,908.4,74.6957779079684,26.4485631199405,3152
124.3,924.4,908.4,74.6957780520137,26.4485902894857,3152
124.5,934.2,908.4,74.6957784106152,26.4486174324417,3152
124.7,944.1,908.4,74.6957789667434,26.4486445016605,3152
124.9,953.8,908.4,74.6957797127059,26.4486713817393,3152
125.1,963.6,908.4,74.6957806521766,26.4486982782651,3152
125.3,973.7,908.4,74.6957818154648,26.4487260152302,3152
125.5,983.2,908.4,74.6957830908244,26.4487523306303,3152
125.7,993.0,908.4,74.6957845351616,26.4487793230967,3152
125.9,1003.0,908.4,74.6957861817899,26.4488068393985,3152
126.1,1012.5,908.4,74.6957879716024,26.4488329601763,3152
126.3,1022.2,908.4,74.695790092941,26.4488599074135,3152
126.5,1032.0,908.4,74.695792453156,26.448886819838,3152
126.7,1041.7,908.4,74.6957950848911,26.4489136873075,3152
126.9,1051.6,908.4,74.6957980488411,26.4489410355763,3152
127.1,1061.3,908.4,74.6958012160389,26.448967740221,3152
127.3,1070.7,908.7,74.6958045774911,26.4489938892327,3153
127.5,1080.4,908.7,74.6958083018311,26.4490205853798,3153
127.7,1090.3,908.7,74.6958124352307,26.4490478788254,3153
127.9,1099.6,908.7,74.6958166552909,26.4490736451713,3153
128.1,1109.2,908.7,74.6958212625206,26.449100132168,3153
128.3,1119.0,908.7,74.6958263893505,26.4491273685975,3153
128.5,1128.6,908.7,74.6958317145105,26.4491538377766,3153
128.7,1137.9,908.7,74.6958372037689,26.4491795704063,3153
128.9,1147.3,908.7,74.695843121011,26.4492057753376,3153
129.1,1156.8,908.7,74.6958494262358,26.4492319832843,3153
129.3,1166.6,908.7,74.6958563702024,26.4492589913752,3153
129.5,1175.8,908.7,74.6958633185891,26.4492846242267,3153
129.7,1185.3,908.7,74.69587077897,26.4493108349146,3153
129.9,1194.9,908.7,74.6958787352814,26.4493374359434,3153
130.1,1204.1,908.7,74.6958866345813,26.4493626891444,3153
130.3,1213.5,908.7,74.6958951692075,26.4493887307027,3153
130.5,1222.9,908.7,74.6959041083679,26.4494146746758,3153
130.7,1232.5,908.7,74.6959136812089,26.4494410799859,3153
130.9,1241.4,908.7,74.6959231088565,26.449465872398,3153
131.1,1250.6,908.4,74.6959331897117,26.4494912190725,3152
131.3,1259.8,908.4,74.6959438251737,26.4495165506707,3152
131.5,1269.0,908.4,74.6959548614101,26.4495416986112,3152
131.7,1278.0,908.4,74.6959662915322,26.4495665998473,3152
131.9,1287.2,908.1,74.6959783846193,26.4495918089157,3152
132.1,1295.9,908.1,74.6959902337252,26.4496156912631,3152
132.3,1304.9,908.4,74.6960029185723,26.4496402545144,3152
132.5,1314.1,908.4,74.6960164858308,26.449665350921,3152
132.7,1322.7,908.4,74.6960298678056,26.4496889969805,3152
132.9,1331.5,908.4,74.6960439379529,26.4497128258753,3152
133.1,1340.1,908.4,74.6960584067313,26.4497363365216,3152
133.3,1348.7,908.4,74.6960733238239,26.4497596703631,3152
133.5,1357.5,908.4,74.6960890427281,26.4497832931227,3152
133.7,1365.9,908.4,74.6961047736489,26.4498061105299,3152
134.1,1382.4,908.4,74.6961369195812,26.4498504556289,3152
134.3,1390.8,908.4,74.6961539563812,26.4498728147142,3152
134.5,1399.3,908.4,74.6961719216687,26.4498955232974,3152
134.7,1407.3,908.4,74.6961893750099,26.4499168497881,3152
134.9,1415.7,908.7,74.6962079478975,26.4499388993967,3153
135.1,1423.5,908.7,74.696225891429,26.4499596422947,3153
135.3,1431.8,908.7,74.6962451612563,26.4499814084674,3153
135.5,1439.7,908.7,74.6962637149711,26.4500018805389,3153
135.7,1447.8,908.7,74.696283538994,26.4500231439831,3153
135.9,1455.4,908.7,74.6963025387555,26.4500429515977,3153
136.1,1463.2,908.7,74.6963223953072,26.4500630171553,3153
136.3,1471.0,909.1,74.6963426944422,26.4500829675843,3153
136.5,1478.7,909.1,74.6963633593543,26.4501026274505,3153
136.7,1486.5,909.1,74.6963848172427,26.4501225016753,3153
136.9,1493.8,909.1,74.6964053654337,26.450141029991,3153
137.1,1501.5,909.1,74.6964272886756,26.4501603000643,3153
137.3,1508.8,909.1,74.6964485163363,26.4501784580495,3153
137.5,1516.1,909.1,74.6964705167672,26.4501967391127,3153
137.7,1523.4,909.1,74.6964925536686,26.4502145481483,3153
137.9,1530.5,909.1,74.6965148052986,26.4502321282971,3153
138.1,1537.9,908.7,74.6965380388015,26.450250075213,3153
138.3,1545.2,908.7,74.696561273797,26.4502675424261,3153
138.5,1552.2,908.7,74.6965842851855,26.4502843868479,3153
138.7,1559.3,908.7,74.6966081506661,26.4503013491395,3153
138.9,1566.3,908.7,74.6966320571713,26.4503179035467,3153
139.1,1573.3,908.7,74.6966560965855,26.4503341712286,3153
139.3,1580.2,908.7,74.6966804278406,26.4503502563494,3153
139.5,1587.1,908.7,74.6967048814041,26.4503660259627,3153
139.7,1593.9,908.7,74.6967294578118,26.4503815524353,3153
139.9,1600.8,908.7,74.6967546763768,26.4503971098829,3153
140.1,1607.3,908.7,74.6967788899158,26.4504116777722,3153
140.3,1613.9,908.7,74.6968041052662,26.4504265153915,3153
140.5,1620.7,908.7,74.6968301117941,26.4504414727995,3153
140.7,1627.2,908.7,74.6968548976108,26.4504554209127,3153
140.9,1633.8,908.7,74.696880990321,26.4504698037737,3153
141.1,1640.1,908.7,74.6969059934303,26.4504832639606,3153
141.3,1646.6,908.7,74.6969320189397,26.4504969905882,3153
141.5,1653.1,908.7,74.6969581771668,26.4505105034054,3153
141.7,1659.5,908.7,74.6969844397157,26.4505237815794,3153
141.9,1666.0,908.7,74.6970113205419,26.4505370973073,3153
142.1,1672.2,908.7,74.697037021758,26.4505495391536,3153
142.3,1678.5,908.7,74.6970637112382,26.4505621816529,3153
142.5,1684.7,908.7,74.6970904568976,26.450574594443,3153
142.7,1691.0,908.7,74.6971171949796,26.4505867629958,3153
142.9,1697.3,908.7,74.6971445501143,26.4505989504626,3153
143.1,1703.4,908.7,74.6971714503813,26.4506107168874,3153
143.3,1709.5,908.7,74.6971980415861,26.4506220636408,3153
143.5,1715.6,908.7,74.697225468667,26.4506335521121,3153
143.7,1721.9,908.7,74.6972536703931,26.4506451184323,3153
143.9,1728.0,908.7,74.6972810621897,26.4506561669476,3153
144.1,1733.9,908.7,74.6973078354029,26.4506667818115,3153
144.3,1740.0,908.7,74.6973355516458,26.450677523317,3153
144.5,1746.0,908.4,74.6973632955957,26.4506881173482,3152
144.7,1752.2,908.4,74.6973917525774,26.4506988325385,3152
144.9,1758.0,908.4,74.6974186665448,26.4507088344793,3152
145.1,1764.0,908.4,74.6974464089639,26.4507189849909,3152
145.3,1770.1,908.4,74.6974744445251,26.4507290867099,3152
145.5,1776.3,908.4,74.6975032575635,26.4507392893035,3152
145.7,1782.1,908.4,74.6975306644382,26.4507488093486,3152
145.9,1788.2,908.4,74.6975593643528,26.4507586270835,3152
146.1,1794.2,908.4,74.6975874444594,26.4507680709243,3152
146.3,1800.0,908.4,74.697615046354,26.4507772231058,3152
146.5,1806.0,908.7,74.6976433726081,26.4507864525881,3153
146.7,1811.9,908.7,74.6976716860037,26.4507955620075,3153
146.9,1817.9,908.7,74.6976998746418,26.4508045135362,3153
147.1,1823.9,908.7,74.6977289281639,26.4508136015746,3153
147.3,1829.9,908.7,74.6977574893909,26.4508224133041,3153
147.5,1835.9,908.7,74.6977860709772,26.4508310896205,3153
147.7,1841.8,908.4,74.6978146709326,26.4508395932438,3152
147.9,1847.7,908.4,74.6978431184236,26.4508479071789,3152
148.1,1853.5,908.4,74.6978708715581,26.4508559859226,3152
148.3,1859.5,908.7,74.6978995779019,26.4508643108223,3153
148.5,1865.7,908.7,74.697928980133,26.4508728051257,3153
148.7,1871.5,908.7,74.6979567782721,26.4508807714818,3153
148.9,1877.4,908.7,74.6979851254977,26.4508887690872,3153
149.1,1883.4,908.7,74.6980135904394,26.4508966713002,3153
149.3,1889.6,908.7,74.6980431962627,26.4509047939025,3153
149.5,1895.5,908.7,74.6980715376715,26.4509124729852,3153
149.7,1901.6,908.7,74.6981006945204,26.4509202787094,3153
149.9,1907.8,909.1,74.6981304342859,26.4509281885977,3153
150.1,1913.8,909.1,74.6981586993093,26.4509356209761,3153
150.3,1919.9,908.7,74.6981877886514,26.4509432128899,3153
150.5,1926.0,908.7,74.6982167351728,26.4509507324372,3153
150.7,1932.0,908.7,74.6982455659681,26.4509581511098,3153
150.9,1938.3,908.7,74.69827491998,26.4509656810734,3153
151.1,1944.4,908.7,74.6983036606131,26.4509729785868,3153
151.3,1950.4,908.7,74.6983318780296,26.450980129174,3153
151.5,1956.6,908.7,74.6983608361848,26.4509875056328,3153
151.7,1962.8,908.7,74.6983897681639,26.4509948535835,3153
151.9,1969.0,908.7,74.6984186067662,26.4510020529634,3153
152.1,1975.2,908.7,74.6984475485422,26.4510092287693,3153
152.3,1981.5,908.4,74.6984767260565,26.4510164204739,3152
152.5,1987.8,908.4,74.6985059104593,26.4510236258843,3152
152.7,1994.2,908.4,74.6985350813913,26.451030824716,3152
152.9,2000.5,908.4,74.6985640617427,26.4510379489881,3152
153.1,2006.8,908.4,74.6985930566364,26.4510450792908,3152
153.3,2013.3,908.4,74.6986222177715,26.4510522381015,3152
153.5,2019.7,908.4,74.6986513642112,26.4510593684042,3152
153.7,2026.2,908.4,74.6986804432972,26.4510665283114,3152
153.9,2032.8,908.4,74.6987100045751,26.4510737819662,3152
154.1,2039.0,908.4,74.6987381422386,26.4510806639199,3152
154.3,2045.5,908.4,74.6987672246922,26.4510876741598,3152
154.5,2052.1,908.4,74.6987963224535,26.4510946526022,3152
154.7,2058.6,908.4,74.6988253798025,26.4511016787409,3152
154.9,2065.3,908.7,74.6988549729204,26.4511089351369,3153
155.1,2072.0,908.7,74.6988839120941,26.4511161109428,3153
155.3,2078.7,908.7,74.6989130983338,26.4511233766587,3153
155.5,2085.3,908.7,74.6989415335786,26.4511304938038,3153
155.7,2092.0,908.7,74.6989706983876,26.4511377737738,3153
155.9,2098.8,908.7,74.6989996599105,26.451145009337,3153
156.1,2105.6,908.7,74.6990286073504,26.4511522361284,3153
156.3,2112.6,908.7,74.6990584016112,26.4511597359393,3153
156.5,2119.3,908.7,74.6990866785746,26.451166889816,3153
156.7,2126.2,908.7,74.6991156085637,26.45117426463,3153
156.9,2133.1,908.4,74.6991442743422,26.451181655891,3152
157.1,2140.2,908.4,74.6991737492848,26.4511893092068,3152
157.3,2147.0,908.4,74.699201976039,26.451196726783,3152
157.5,2154.1,908.4,74.6992309495019,26.4512044277949,3152
157.7,2161.4,908.4,74.6992606693674,26.4512123546784,3152
157.9,2168.3,908.4,74.6992887243694,26.4512198928655,3152
158.1,2175.5,908.4,74.6993175404694,26.4512277013309,3152
158.3,2182.7,908.4,74.6993464453539,26.4512356232803,3152
158.5,2190.0,908.4,74.6993751674646,26.4512436055352,3152
158.7,2197.2,908.4,74.6994037052709,26.4512516130087,3152
158.9,2204.6,908.4,74.6994327760907,26.4512598238763,3152
159.1,2211.8,908.4,74.6994604940175,26.4512677748819,3152
159.3,2219.4,908.4,74.6994899340586,26.4512762680888,3152
159.5,2226.7,908.4,74.6995180408005,26.4512844696364,3152
159.7,2234.3,908.4,74.6995469766066,26.4512930291794,3152
159.9,2241.8,908.7,74.6995757336189,26.4513016408043,3153
160.1,2249.4,908.7,74.699604402765,26.4513103313747,3153
160.3,2257.1,908.7,74.6996330942605,26.4513191677747,3153
160.5,2264.8,908.7,74.6996616002268,26.4513280940847,3153
160.7,2272.5,908.7,74.6996899350532,26.4513370735732,3153
160.9,2280.4,908.7,74.6997187263547,26.4513463244365,3153
161.1,2288.1,908.7,74.6997468370766,26.4513554453688,3153
161.3,2295.7,908.7,74.6997743651882,26.4513645098332,3153
161.5,2303.6,908.7,74.6998024930547,26.4513739125567,3153
161.7,2311.4,908.7,74.6998304831521,26.4513833909361,3153
161.9,2319.3,908.7,74.6998582506758,26.451392946068,3153
162.1,2327.2,908.7,74.6998860246287,26.4514026969186,3153
162.3,2335.3,908.7,74.6999140067661,26.4514126747372,3153
162.5,2343.4,908.7,74.6999420094158,26.4514228148324,3153
162.7,2351.6,908.7,74.6999700200255,26.4514330607364,3153
162.9,2360.0,908.7,74.6999985706903,26.4514436662804,3153
163.3,2376.3,908.7,74.7000536189534,26.4514646120242,3153
163.5,2384.6,908.4,74.7000813307571,26.4514754242516,3152
163.7,2393.2,908.4,74.7001095719005,26.4514866218859,3152
163.9,2401.3,908.4,74.7001360887865,26.4514974204075,3152
164.1,2409.8,908.4,74.7001632764552,26.4515087101447,3152
164.3,2418.3,908.4,74.7001905924023,26.4515202542616,3152
164.5,2427.1,908.1,74.7002185209628,26.4515322638272,3152
164.7,2435.5,908.1,74.7002448734443,26.4515438298733,3152
164.9,2444.0,908.1,74.7002716162718,26.4515558131238,3152
165.1,2452.9,908.4,74.7002989233404,26.4515683533778,3152
165.3,2461.4,908.4,74.7003249629329,26.4515804846508,3152
165.5,2470.4,908.4,74.7003523116384,26.4515934114082,3152
165.7,2479.0,908.4,74.7003782694878,26.451605761974,3152
165.9,2487.8,908.4,74.700404670954,26.4516184540882,3152
166.1,2496.6,908.4,74.7004310877278,26.4516313046414,3152
166.3,2505.7,908.4,74.7004583265241,26.4516446069376,3152
166.5,2514.6,908.4,74.7004848342255,26.4516576373108,3152
166.7,2523.5,908.4,74.7005112307932,26.4516706775522,3152
166.9,2532.2,908.4,74.7005367300245,26.451683373504,3152
167.1,2541.1,908.4,74.7005628813631,26.4516965710879,3152
167.3,2550.1,908.4,74.7005891554693,26.451709934786,3152
167.5,2559.3,908.4,74.7006160428012,26.4517236855358,3152
167.7,2568.1,908.1,74.700641542951,26.4517367263254,3152
167.9,2577.0,908.1,74.7006675537651,26.4517500538403,3152
168.1,2586.2,908.1,74.7006942920002,26.4517637711479,3152
168.3,2595.0,908.1,74.7007199103253,26.4517768711466,3152
168.5,2604.1,908.4,74.7007461623884,26.4517903943801,3152
168.7,2613.2,908.4,74.700772301787,26.4518039527006,3152
168.9,2622.2,908.4,74.7007982072842,26.451817466066,3152
169.1,2631.2,908.4,74.7008241005352,26.4518309744973,3152
169.3,2640.3,908.4,74.7008501205339,26.4518445969609,3152
169.5,2649.6,908.4,74.7008767944768,26.4518586075725,3152
169.7,2658.7,908.7,74.7009027893709,26.4518723029509,3153
169.9,2667.6,908.7,74.7009279683654,26.4518856315622,3153
170.1,2676.7,908.7,74.7009538172242,26.4518993494181,3153
170.3,2686.1,908.7,74.7009804400394,26.4519135146311,3153
170.7,2704.1,908.7,74.7010313953344,26.4519408807174,3153
170.9,2713.2,908.7,74.701056976921,26.451954772911,3153
171.1,2722.6,908.7,74.7010832917456,26.4519691245228,3153
171.3,2731.6,908.7,74.7011085215617,26.4519828813031,3153
171.5,2741.1,908.7,74.7011351704,26.4519974132832,3153
171.7,2750.2,908.7,74.7011604562422,26.4520112709382,3153
171.9,2759.4,908.7,74.7011861627395,26.4520254339583,3153
172.1,2768.7,908.7,74.7012117755539,26.4520396205524,3153
172.3,2778.2,908.7,74.7012381200754,26.4520541903604,3153
172.5,2787.4,908.7,74.7012637298282,26.4520683813403,3153
172.7,2796.4,908.7,74.7012885595014,26.4520821775934,3153
172.9,2805.5,908.7,74.7013138184021,26.4520962857903,3153
173.1,2814.7,908.7,74.7013391232259,26.452110452648,3153
173.3,2824.2,908.7,74.7013652828306,26.4521251342953,3153
173.5,2833.5,908.7,74.7013906929712,26.4521394919377,3153
173.7,2842.5,908.7,74.7014153138477,26.452153385776,3153
173.9,2851.8,908.7,74.7014410234066,26.452167882121,3153
174.1,2861.0,908.7,74.7014662192396,26.4521820659739,3153
174.3,2870.1,908.7,74.7014909607406,26.4521960584939,3153
174.5,2879.6,908.7,74.7015170480931,26.452210862397,3153
174.7,2888.7,908.7,74.7015418661326,26.4522250188383,3153
174.9,2898.0,908.7,74.701567240147,26.4522395212139,3153
175.1,2907.4,908.7,74.7015927592783,26.4522541217229,3153
175.3,2917.2,908.7,74.7016192183013,26.4522693055506,3153
175.5,2926.4,908.7,74.7016443124913,26.4522837695499,3153
175.7,2935.9,908.7,74.7016699081611,26.4522985767424,3153
175.9,2945.3,908.7,74.701695161551,26.4523132309782,3153
176.1,2954.8,908.7,74.7017209782636,26.4523282558186,3153
176.3,2964.0,908.7,74.7017455740355,26.4523425224545,3153
176.5,2973.5,908.7,74.7017714158528,26.4523574683496,3153
176.7,2982.6,908.7,74.7017959148801,26.4523716576848,3153
176.9,2991.9,908.7,74.7018208798733,26.4523862066601,3153
177.1,3001.2,908.7,74.7018459201803,26.4524008767946,3153
177.3,3010.9,908.7,74.7018718269021,26.4524160896786,3153
177.5,3020.1,908.7,74.701896452677,26.4524305745107,3153
177.7,3029.5,908.7,74.7019216974947,26.4524454107594,3153
177.9,3039.1,908.7,74.7019473096967,26.4524604701385,3153
178.1,3048.2,908.7,74.7019716097241,26.4524747444497,3153
178.3,3057.6,908.7,74.7019967302434,26.4524894392546,3153
178.5,3067.2,908.7,74.7020225304237,26.4525045101465,3153
178.7,3076.4,908.7,74.7020470863956,26.4525188617583,3153
178.9,3085.8,908.7,74.7020723054964,26.452533603163,3153
179.1,3095.3,908.7,74.7020976721631,26.4525484564069,3153
179.3,3105.1,908.7,74.7021238366663,26.4525638030594,3153
179.5,3114.6,908.7,74.7021492584408,26.4525787292182,3153
179.7,3123.8,908.7,74.7021738517634,26.4525931981516,3153
179.9,3133.2,908.7,74.7021988014489,26.4526078710272,3153
180.1,3142.8,908.7,74.7022243793617,26.4526229413709,3153
180.3,3151.9,908.7,74.7022488489983,26.4526373417754,3153
180.7,3170.8,908.7,74.7022988530739,26.4526669325863,3153
180.9,3180.1,908.7,74.7023236674395,26.4526816389041,3153
181.1,3189.5,908.7,74.7023485975312,26.4526963759229,3153
181.3,3199.0,908.7,74.7023737719334,26.4527112494514,3153
181.5,3208.7,908.7,74.7023996529384,26.4527265122244,3153
181.7,3218.0,908.7,74.7024242536087,26.4527410359811,3153
181.9,3227.4,908.7,74.7024494231125,26.452755879905,3153
182.1,3237.0,908.7,74.7024747940655,26.4527708060638,3153
182.3,3246.6,908.7,74.7025003119721,26.4527858758592,3153
182.5,3256.2,908.7,74.7025257159897,26.452800868354,3153
182.7,3265.9,908.7,74.7025515394377,26.4528161355129,3153
182.9,3275.0,908.7,74.7025757941544,26.4528304613579,3153
183.1,3284.4,908.7,74.7026006868953,26.4528451402641,3153
183.3,3293.9,908.7,74.70262574251,26.4528599156591,3153
183.5,3303.3,908.7,74.7026508471093,26.4528747129834,3153
183.7,3312.8,908.7,74.7026759798747,26.4528894933124,3153
183.9,3322.5,908.7,74.7027016588182,26.4529045981947,3153
184.1,3331.9,908.7,74.7027267334144,26.4529193977119,3153
184.3,3341.2,908.7,74.7027513463309,26.4529338660971,3153
184.5,3350.7,908.7,74.7027765507362,26.4529486985083,3153
184.7,3360.2,908.7,74.7028017416708,26.4529634991219,3153
184.9,3369.6,908.7,74.7028267642209,26.4529781999574,3153
185.1,3379.1,908.7,74.7028518473894,26.4529929693218,3153
185.3,3388.6,908.4,74.7028771203731,26.45300780886,3152
185.5,3398.1,908.4,74.7029023970307,26.453022612763,3152
185.7,3407.7,908.4,74.7029276938945,26.4530373486853,3152
185.9,3417.3,908.4,74.7029534855025,26.4530523378907,3152
186.1,3426.6,908.4,74.7029780659667,26.4530666374205,3152
186.3,3436.1,908.4,74.7030034938642,26.4530813963686,3152
186.5,3445.7,908.4,74.7030289027802,26.4530960599243,3152
186.7,3455.2,908.4,74.7030542725085,26.4531106681086,3152
186.9,3464.6,908.7,74.7030794438493,26.4531251304632,3153
187.1,3474.0,908.7,74.7031046519285,26.4531396087166,3153
187.3,3483.8,908.7,74.7031306688656,26.4531545677693,3153
187.5,3493.3,908.7,74.703156052677,26.4531691551208,3153
187.7,3502.5,908.7,74.7031807892795,26.453183335136,3153
187.9,3511.9,908.7,74.7032060047064,26.4531977624038,3153
188.1,3521.4,908.7,74.7032311931918,26.4532121518437,3153
188.3,3530.8,908.7,74.7032565659816,26.4532265818526,3153
188.5,3540.5,908.7,74.7032826104726,26.4532413660193,3153
188.7,3549.8,908.7,74.7033073893244,26.4532554292613,3153
188.9,3559.5,908.7,74.7033333517661,26.4532701246144,3153
189.1,3568.9,908.7,74.7033587576206,26.4532844674545,3153
189.3,3578.2,908.7,74.7033837226138,26.4532984994472,3153
189.5,3588.0,908.7,74.703410058563,26.4533132677152,3153
189.7,3597.5,908.7,74.7034357485281,26.4533276489315,3153
189.9,3606.7,908.7,74.7034605659552,26.4533414945254,3153
190.1,3616.2,908.7,74.7034861187634,26.4533557057899,3153
190.3,3625.7,908.7,74.7035118920022,26.453370034376,3153
190.5,3635.3,908.7,74.703537689121,26.4533843733785,3153
190.7,3644.8,908.7,74.7035634097014,26.4533986734565,3153
190.9,3654.3,908.7,74.7035889484265,26.4534128222226,3153
191.1,3663.7,908.7,74.7036145104193,26.4534268810787,3153
191.3,3673.2,908.7,74.7036401850767,26.4534408960762,3153
191.5,3682.6,908.7,74.7036657856449,26.4534548250013,3153
191.7,3692.0,908.7,74.7036913684561,26.4534687160984,3153
191.9,3701.3,908.7,74.7037168404398,26.4534825348289,3153
192.1,3710.7,908.7,74.7037424067187,26.4534963590418,3153
192.3,3720.2,908.7,74.7037682038375,26.4535102704235,3153
192.5,3729.7,908.7,74.7037940725963,26.4535241724852,3153
192.7,3739.1,908.7,74.7038199640104,26.4535379977945,3153
192.9,3748.8,908.7,74.7038463875196,26.4535520264978,3153
193.1,3758.0,908.7,74.7038716237649,26.4535653386622,3153
193.3,3767.5,908.4,74.7038978874619,26.4535791316258,3152
193.5,3777.1,908.4,74.703924249128,26.4535929273306,3152
193.7,3786.9,908.7,74.7039512812707,26.4536069861866,3153
193.9,3796.1,908.7,74.7039767079436,26.4536201684201,3153
194.1,3805.7,908.7,74.7040032906526,26.4536339158805,3153
194.3,3815.0,908.7,74.7040292157437,26.4536472368165,3153
194.5,3824.3,908.4,74.7040551040963,26.4536604585226,3152
194.7,3833.4,908.4,74.7040803776923,26.4536733551273,3152
194.9,3842.8,908.4,74.7041064368787,26.45368654997,3152
195.1,3852.5,908.7,74.7041334696336,26.4537001724336,3153
195.3,3861.8,908.7,74.7041594235031,26.4537132532441,3153
195.5,3871.3,908.7,74.7041860325414,26.4537266421609,3153
195.7,3880.8,908.7,74.7042124891152,26.4537399263654,3153
195.9,3890.2,908.7,74.7042386046337,26.4537530702226,3153
196.1,3899.5,908.7,74.7042646821893,26.4537662223033,3153
196.3,3909.0,908.4,74.7042908950648,26.4537794648422,3152
196.5,3918.6,908.4,74.7043177429029,26.4537931070421,3152
196.7,3927.8,908.4,74.7043432075389,26.4538060979426,3152
196.9,3937.2,908.4,74.7043692428452,26.4538193996905,3152
197.1,3946.9,908.4,74.7043960165941,26.4538330956172,3152
197.3,3956.4,908.4,74.7044222753927,26.4538465404536,3152
197.5,3965.8,908.4,74.7044484013205,26.4538599458173,3152
197.7,3975.2,908.4,74.70447435519,26.4538732651087,3152
197.9,3984.5,908.4,74.7045001112842,26.4538864451492,3152
198.1,3993.7,908.4,74.7045253891664,26.453899358749,3152
198.3,4003.2,908.4,74.7045517116449,26.4539127975549,3152
198.5,4013.0,908.7,74.7045788056306,26.453926660144,3153
198.7,4022.3,908.7,74.704604454571,26.4539398730784,3153
198.9,4032.0,908.7,74.7046311474954,26.4539536863266,3153
199.1,4041.2,908.7,74.704656471913,26.4539667885182,3153
199.3,4050.7,908.7,74.7046825855947,26.4539803079141,3153
199.5,4060.4,908.7,74.7047093519959,26.4539941414469,3153
199.7,4069.9,908.7,74.7047354258776,26.4540076219184,3153
199.9,4079.1,908.7,74.7047606498768,26.454020657774,3153
200.1,4088.7,908.7,74.7047872246259,26.4540343898839,3153
200.3,4098.2,908.4,74.7048133089168,26.4540478615837,3152
200.5,4107.7,908.4,74.7048393779001,26.4540613639845,3152
200.7,4117.0,908.4,74.7048647610991,26.4540744924911,3152
200.9,4126.6,908.4,74.7048913450328,26.4540882202152,3152
201.1,4135.8,908.4,74.7049166572043,26.4541012801929,3152
201.3,4145.6,908.4,74.7049434946332,26.45411517129,3152
201.5,4155.1,908.4,74.7049695495334,26.4541286961683,3152
201.7,4164.3,908.4,74.7049948329263,26.4541418126139,3152
201.9,4173.7,908.4,74.7050206245344,26.4541551214889,3152
202.1,4183.1,908.4,74.7050464920685,26.4541684681918,3152
202.3,4192.7,908.4,74.7050726957594,26.4541820001971,3152
202.5,4202.3,908.4,74.7050989484348,26.4541955541317,3152
202.7,4212.1,908.4,74.7051258611775,26.4542094457771,3152
202.9,4221.3,908.7,74.7051512915243,26.4542225715426,3153
203.1,4230.9,908.4,74.7051775301166,26.4542360909386,3152
203.3,4240.5,908.7,74.7052040099581,26.4542496613201,3153
203.5,4250.3,908.7,74.7052310659807,26.4542635107516,3153
203.7,4259.6,908.7,74.7052565048998,26.4542765093274,3153
203.9,4268.9,908.7,74.7052822726278,26.454289692109,3153
204.1,4278.3,908.4,74.7053080501528,26.4543028891447,3152
204.3,4288.0,908.4,74.7053347736925,26.4543165187352,3152
204.5,4297.5,908.4,74.7053609265619,26.4543298358337,3152
204.7,4307.0,908.7,74.705387172502,26.4543431540286,3153
204.9,4316.5,908.7,74.7054133149621,26.4543563905369,3153
205.1,4326.0,908.7,74.7054395504929,26.4543696511675,3153
205.3,4335.3,908.7,74.7054652974025,26.4543826508397,3153
205.5,4345.1,908.7,74.7054923920005,26.4543963067454,3153
205.7,4354.7,908.7,74.7055187267251,26.4544095333856,3153
205.9,4364.1,908.7,74.7055449059237,26.4544226311913,3153
206.1,4373.6,908.4,74.705571114513,26.4544357273524,3152
206.3,4382.9,908.4,74.7055969055087,26.4544485779055,3152
206.5,4392.5,908.4,74.7056234906671,26.4544618089316,3152
206.7,4402.3,908.7,74.7056506685388,26.4544752921442,3153
206.9,4411.7,908.7,74.7056768765158,26.4544882358968,3153
207.1,4420.9,908.7,74.705702359521,26.4545007843743,3153
207.3,4430.3,908.4,74.7057286648549,26.4545136957812,3152
207.5,4439.8,908.4,74.7057550412164,26.454526604447,3152
207.7,4449.3,908.4,74.7057815045255,26.454539511468,3152
207.9,4458.7,908.7,74.7058077963886,26.454552300071,3153
208.1,4468.4,908.7,74.7058348554728,26.45456543406,3153
208.3,4477.6,908.7,74.7058607285177,26.4545779792481,3153
208.5,4487.1,908.7,74.7058873026545,26.4545907832016,3153
208.7,4496.6,908.7,74.7059138633205,26.4546035416518,3153
208.9,4506.0,908.7,74.7059403774511,26.4546162315731,3153
209.1,4515.6,908.7,74.7059670697632,26.454629000988,3153
209.3,4525.1,908.7,74.7059938998444,26.454641751763,3153
209.5,4534.9,908.7,74.7060213924422,26.4546547092213,3153
209.7,4544.1,908.7,74.7060474681608,26.4546669336938,3153
209.9,4553.5,908.7,74.7060740073961,26.4546793028995,3153
210.1,4562.9,908.7,74.7061005717359,26.4546916282466,3153
210.3,4572.6,908.7,74.7061280606598,26.4547043099444,3153
210.5,4581.8,908.7,74.7061542025076,26.4547163134795,3153
210.7,4591.2,908.7,74.706181044835,26.4547285675565,3153
210.9,4600.6,908.7,74.7062076936732,26.4547407119871,3153
211.1,4609.9,908.7,74.7062341937208,26.4547527423855,3153
211.3,4619.4,908.7,74.7062614622141,26.4547650019448,3153
211.5,4628.8,908.4,74.7062882365753,26.4547769786165,3152
211.7,4638.0,908.4,74.7063145253769,26.4547887359955,3152
211.9,4647.6,908.4,74.7063422775929,26.4548010662767,3152
212.1,4656.9,908.7,74.7063688358097,26.4548128104982,3153
212.3,4666.7,908.7,74.7063969505116,26.4548251638051,3153
212.5,4676.2,908.7,74.7064243084018,26.4548370845572,3153
212.7,4685.4,908.7,74.70645094132,26.4548485859119,3153
212.9,4695.0,908.4,74.7064787608899,26.4548604978923,3152
213.1,4704.1,908.4,74.7065052101159,26.4548717667967,3152
213.3,4713.7,908.4,74.706533219501,26.4548836091517,3152
213.5,4722.8,908.4,74.7065597226101,26.4548947678615,3152
213.7,4732.1,908.4,74.7065868074112,26.4549060861069,3152
213.9,4741.3,908.4,74.7066137317877,26.4549172629084,3152
214.1,4750.8,908.4,74.7066415231914,26.4549287215011,3152
214.3,4759.9,908.4,74.7066682001958,26.4549396417301,3152
214.5,4769.3,908.4,74.7066956952428,26.4549507949577,3152
214.7,4778.6,908.7,74.7067232258036,26.4549618966514,3153
214.9,4788.1,908.7,74.7067513074409,26.4549731447231,3153
215.1,4797.2,908.7,74.7067780848637,26.4549837820645,3153
215.3,4806.5,908.7,74.7068058162613,26.4549946765267,3153
215.5,4815.9,908.7,74.7068336897141,26.4550054876576,3153
215.7,4825.3,908.7,74.7068616109269,26.4550162225843,3153
215.9,4834.6,908.7,74.7068893508968,26.4550268220977,3153
